[
  {
    "id": 1,
    "name": "Tokyo Camii",
    "address": "1-19 Oyamacho, Shibuya-ku, Tokyo",
    "imageUrl": "https://muntasirahmadnabil.github.io/mosques-data/images/TokyoCamii.jpg",
    "prayerTimes": {
      "fajr": "05:00",
      "dhuhr": "12:30",
      "asr": "15:45",
      "maghrib": "18:10",
      "isha": "19:30",
      "jumma": "12:45"
    },
    "latitude": 35.6692,
    "longitude": 139.6800
  },
  {
    "id": 2,
    "name": "Osaka Mosque",
    "address": "3-10 Umeda, Kita-ku, Osaka",
    "imageUrl": "https://muntasirahmadnabil.github.io/mosques-data/images/Osaka.jpg",
    "prayerTimes": {
      "fajr": "05:10",
      "dhuhr": "12:35",
      "asr": "15:50",
      "maghrib": "18:15",
      "isha": "19:40",
      "jumma": "12:50"
    },
    "latitude": 34.6784,
    "longitude": 135.5032
  },
  {
    "id": 3,
    "name": "Kobe Muslim Mosque",
    "address": "2-25-14 Nakayamate-dori, Chuo-ku, Kobe",
    "imageUrl": "https://muntasirahmadnabil.github.io/mosques-data/images/KobeMuslimMosque.jpg",
    "prayerTimes": {
      "fajr": "05:05",
      "dhuhr": "12:32",
      "asr": "15:47",
      "maghrib": "18:12",
      "isha": "19:35",
      "jumma": "12:40"
    },
    "latitude": 34.6973,
    "longitude": 135.1978
  },
  {
    "id": 4,
    "name": "Nagoya Mosque",
    "address": "2-26-7 Shinsakae, Naka-ku, Nagoya",
    "imageUrl": "https://muntasirahmadnabil.github.io/mosques-data/images/NagoyaMosque.jpg",
    "prayerTimes": {
      "fajr": "05:08",
      "dhuhr": "12:33",
      "asr": "15:48",
      "maghrib": "18:13",
      "isha": "19:37",
      "jumma": "12:45"
    },
    "latitude": 35.1851,
    "longitude": 136.8995
  },
  {
    "id": 5,
    "name": "Sapporo Mosque",
    "address": "2-2-18 Minami 5 Jonishi, Chuo-ku, Sapporo",
    "imageUrl": "https://muntasirahmadnabil.github.io/mosques-data/images/SapporoMosque.jpg",
    "prayerTimes": {
      "fajr": "04:50",
      "dhuhr": "12:20",
      "asr": "15:40",
      "maghrib": "18:05",
      "isha": "19:20",
      "jumma": "12:30"
    },
    "latitude": 43.0687,
    "longitude": 141.3508
  }
]
